name,cuisine,overall_rating,locality,address,suburb,latitude,longitude,average_for_one,feature
La Belle Miette,"Desserts, French, Coffee and Tea",4.8,CBD,"30 Hardware Lane, CBD, Melbourne",CBD,-37.81400716,144.961446,$10.00 ,Desserts
Om Nom Kitchen - Adelphi Hotel,"Desserts, Modern Australian",4.3,CBD,"Adelphi Hotel, 187 Flinders Lane, CBD, Melbourne",CBD,-37.81620952,144.9683128,$75.00 ,Desserts
Scoopy Milk Bar,"Korean, Desserts, Asian",4.7,CBD,"33 Guildford Lane, CBD, Melbourne",CBD,-37.81140689,144.9598635,$15.00 ,Desserts
Dex2rose Nitrogen Gelato,"Desserts, Ice Cream",4.3,CBD,"377 Little Bourke Street, CBD, Melbourne",CBD,-37.81381539,144.9616492,$12.50 ,Desserts
Kyo Teahouse,"Japanese, Desserts, Tea",4.5,Emporium Melbourne,"Emporium Melbourne, Lower Ground, 287 Lonsdale Street, CBD, Melbourne",Emporium Melbourne,-37.81274451,144.9637956,$10.00 ,Desserts
Waffle On,Desserts,4.6,CBD,"9 Degraves Street, CBD, Melbourne",CBD,-37.81741728,144.9658924,$17.50 ,Desserts
Pidapipo,"Ice Cream, Desserts",4.9,Carlton,"299 Lygon Street, Carlton, Melbourne",Carlton,-37.79833103,144.9671863,$7.50 ,Desserts
Little Cupcakes,"Desserts, Coffee and Tea",4.5,CBD,"Shop 7, Degraves Street, CBD, Melbourne",CBD,-37.81752667,144.9659213,$12.50 ,Desserts
IL Dolce Freddo,Desserts,4.7,Carlton,"116 Lygon Street, Carlton, Melbourne",Carlton,-37.80431282,144.9664591,$7.50 ,Desserts
Dessert Story,Desserts,3.9,CBD,"195 Little Bourke Street, CBD, Melbourne",CBD,-37.81213662,144.9668074,$12.50 ,Desserts
Doughboys Doughnuts,"Coffee and Tea, Desserts",4,CBD,"535 Bourke Street, CBD, Melbourne",CBD,-37.81595075,144.9578592,$10.00 ,Desserts
Sweetie & Moustache Dessert Lounge,Desserts,2.1,CBD,"Level 3-4, 205 Russell Street, CBD, Melbourne",CBD,-37.81164713,144.9673539,$15.00 ,Desserts
Aqua S,"Desserts, Ice Cream",4,"QV Centre, CBD","QV Centre, Level 2, 16 Red Cape Lane, CBD, Melbourne","QV Centre, CBD",-37.81068482,144.9651994,$7.50 ,Desserts
Burch & Purchese Sweet Studio,Desserts,4.8,South Yarra,"647 Chapel Street, South Yarra, Melbourne",South Yarra,-37.83772086,144.9958983,$12.50 ,Desserts
CHE Desserts,"Desserts, Beverages, Vietnamese",4,CBD,"359 Lonsdale Street, CBD, Melbourne, Melbourne",CBD,-37.81250268,144.9619503,$7.50 ,Desserts
Hui Lau Shan,"Asian, Desserts",4,CBD,"425 Elizabeth Street, CBD, Melbourne",CBD,-37.80900837,144.9606185,$20.00 ,Desserts
Gelateria Primavera,"Ice Cream, Desserts",4.4,CBD,"157 Spring Street, CBD, Melbourne",CBD,-37.8110787,144.9727807,$10.00 ,Desserts
Meet Fresh QV,"Beverages, Desserts, Bubble Tea, Taiwanese",4,"QV Centre, CBD","QV Centre, Level 2, 24 Artemis Lane, CBD, Melbourne","QV Centre, CBD",-37.81056298,144.9662535,$15.00 ,Desserts
Harajuku Crepes,"Desserts, Japanese, Crepes",3.9,"Melbourne Central, CBD","Melbourne Central, Level 1, Corner of Swanston Street and La Trobe Street, CBD, Melbourne","Melbourne Central, CBD",-37.81018181,144.9637621,$12.50 ,Desserts
Godiva,"Desserts, Cafe Food",4.2,Emporium Melbourne,"Emporium Melbourne, Level 1, 287 Lonsdale Street, CBD, Melbourne",Emporium Melbourne,-37.81254506,144.9638224,$15.00 ,Desserts
HongKongBoi,"Asian, Desserts, Ice Cream",3.9,CBD,"Shop 2/155 Franklin Street, CBD, Melbourne",CBD,-37.80874957,144.9593421,$17.50 ,Desserts
The Pancake Parlour,"Desserts, Continental",3.7,"Melbourne Central, CBD","Melbourne Central, Level 3, Corner of Swanston Street and La Trobe Street, CBD, Melbourne","Melbourne Central, CBD",-37.81021651,144.963109,$30.00 ,Desserts
Uncle Tetsu,"Bakery, Desserts",4.1,CBD,"55 Swanston Street, CBD, Melbourne",CBD,-37.81641558,144.9668439,$10.00 ,Desserts
Pidapipo Gelateria,"Ice Cream, Desserts",4.4,CBD,"8 Degraves Street, CBD, Melbourne",CBD,-37.81770227,144.9660252,$7.50 ,Desserts
Frozen by a Thousand Blessings,"Desserts, Frozen Yogurt",4.3,"Melbourne Central, CBD","Melbourne Central, Level 2, Corner of Swanston Street and La Trobe Street, CBD, Melbourne","Melbourne Central, CBD",-37.81102758,144.9631814,$7.50 ,Desserts
Chocolateria San Churro,"Beverages, Coffee and Tea, Desserts, Spanish",4,"QV Centre, CBD","QV Centre, Level 2, Corner of Lonsdale Street and Swanston Street, CBD, Melbourne","QV Centre, CBD",-37.81058973,144.96444,$25.00 ,Desserts
BlackBall,"Desserts, Beverages, Taiwanese",3.8,CBD,"Village Centre Arcade, Ground Level, Shop 8, 206 Bourke Street, CBD, Melbourne",CBD,-37.81252732,144.9668178,$10.00 ,Desserts
Nitro Lab,"Desserts, Ice Cream",3.4,CBD,"188 Bourke Street, CBD, Melbourne",CBD,-37.81281073,144.9676959,$10.00 ,Desserts
Moonshine Cake,Desserts,3.8,CBD,"318 Little Collins Street, CBD, Melbourne",CBD,-37.81500439,144.9641118,$15.00 ,Desserts
Maxims Cakes and Pastry,"Bakery, Desserts",4.2,CBD,"173 Little Bourke Street, CBD, Melbourne",CBD,-37.81197876,144.9673472,$7.50 ,Desserts
Walker's Doughnuts,"American, Desserts",4.1,CBD,"2/26 Elizabeth Street, CBD, Melbourne",CBD,-37.81803228,144.965133,$15.00 ,Desserts
American Doughnut Kitchen,Desserts,4.5,Queen Victoria Markets,"Queen Victoria Market, Shed H and I, Queen Street, CBD, Melbourne",Queen Victoria Markets,-37.80746485,144.9582579,$5.00 ,Desserts
Lukumades,"Bakery, Desserts",4.2,West Melbourne,"83 Peel Street, West Melbourne, Melbourne",West Melbourne,-37.80632606,144.9556823,$15.00 ,Desserts
Keki Milkbar,"Desserts, Beverages",3.9,CBD,"190 Queen Street, CBD, Melbourne",CBD,-37.814026,144.960783,$15.00 ,Desserts
Yo-Chi Frozen Yogurt,"Frozen Yogurt, Desserts, Healthy Food",4.5,Carlton,"194 Faraday Street, Carlton, Melbourne",Carlton,-37.79865132,144.9679966,$15.00 ,Desserts
The French Lettuce Patisserie & Bakery,"Desserts, Bakery, Cafe Food",4.3,Carlton,"237 Nicholson Street, Carlton, Melbourne",Carlton,-37.79444658,144.9753315,$10.00 ,Desserts
Happy Lemon -  Swanston Street,"Bubble Tea, Beverages, Desserts",3.9,CBD,"77 Swanston Street, CBD, Melbourne",CBD,-37.81598174,144.966673,$7.50 ,Desserts
Koko Black,"Coffee and Tea, Desserts",4.4,Carlton,"167 Lygon Street, Carlton, Melbourne",Carlton,-37.8018285,144.9665687,$12.50 ,Desserts
Doughnut Time,Desserts,3.1,CBD,"5 Degraves Street, CBD, Melbourne",CBD,-37.81771021,144.9659256,$12.50 ,Desserts
Fresh Air & Pancake,"Desserts, Ice Cream",3.6,CBD,"299, Elizabeth Street, CBD, Melbourne",CBD,-37.811648,144.96167,$15.00 ,Desserts
Top Tea,"Bubble Tea, Beverages, Desserts",4.1,CBD,"242 Swanston Street, CBD, Melbourne",CBD,-37.81228893,144.9651565,$7.50 ,Desserts
PAFU,"Bakery, Desserts, Japanese",3.9,"QV Centre, CBD","QV Centre, Level 1, Corner of Lonsdale Street and Swanston Street, CBD, Melbourne","QV Centre, CBD",-37.81059794,144.9656078,$10.00 ,Desserts
Dolcetti,"Bakery, Desserts",4.3,West Melbourne,"223 Victoria Street, West Melbourne, Melbourne",West Melbourne,-37.80580898,144.9540659,$10.00 ,Desserts
La Belle Miette,"Desserts, French, Coffee and Tea",4.2,CBD,"8 Collins Street, CBD, Melbourne",CBD,-37.81338577,144.9733171,$10.00 ,Desserts
Plantation,"Coffee and Tea, Desserts",4.1,"Melbourne Central, CBD","Melbourne Central, Level 2, Corner of Swanston Street and La Trobe Street, CBD, Melbourne","Melbourne Central, CBD",-37.81020432,144.9631063,$10.00 ,Desserts
Kurimu,"Japanese, Desserts",4,"Melbourne Central, CBD","Melbourne Central, Lower Ground Level, Corner of Swanston Street and La Trobe Street, CBD, Melbourne","Melbourne Central, CBD",-37.81028273,144.9628656,$7.50 ,Desserts
Tutto,"Juices, Beverages, Desserts, Frozen Yogurt",4.1,Carlton,"81 Grattan Street, Carlton, Melbourne",Carlton,-37.80081996,144.9666424,$12.50 ,Desserts
The Souffle,Desserts,2.8,CBD,"365 Little Lonsdale Street, CBD, Melbourne",CBD,-37.81159495,144.9612653,$17.50 ,Desserts
Afternoon Tea At The Windsor,Desserts,4.1,Hotel Windsor,"Hotel Windsor, 111 Spring Street, CBD, Melbourne",Hotel Windsor,-37.8121247,144.9731411,$70.00 ,Desserts
Choix Creperie Café,"French, Cafe Food, Crepes, Desserts, Coffee and Tea",4.1,CBD,"620 Collins Street, CBD, Melbourne",CBD,-37.81874897,144.9545638,$20.00 ,Desserts
May Yu Dessert,Desserts,4,CBD,"11 Rose Lane, CBD, Melbourne",CBD,-37.81572058,144.9541232,$25.00 ,Desserts
Hokkaido Baked Cheese Tart - QV,"Bakery, Desserts",4.1,"QV Centre, CBD","QV Centre, Level 2, 22 Red Cape Lane, CBD, Melbourne","QV Centre, CBD",-37.81066919,144.9651297,$5.00 ,Desserts
Rainbow Toastie,"Desserts, Korean, Cafe Food",3.2,CBD,"18 Sutherland Street, CBD, Melbourne",CBD,-37.81123471,144.9609062,$15.00 ,Desserts
Egg Station,"Bubble Tea, Cafe Food, Desserts, Ice Cream",4.1,South Yarra,"175 Toorak Road, South Yarra, Melbourne",South Yarra,-37.83906701,144.9927175,$15.00 ,Desserts
Casa Del Gelato,"Desserts, Ice Cream",4.2,Carlton,"163 Lygon Street, Carlton, Melbourne",Carlton,-37.80187088,144.9665767,$7.50 ,Desserts
Little Cupcakes,"Desserts, Coffee and Tea",4.1,Goldsborough Lane,"TG 06, Goldsborough Lane, CBD, Melbourne",Goldsborough Lane,-37.81502478,144.957298,$12.50 ,Desserts
Ben & Jerry's,"Desserts, Ice Cream",3.9,CBD,"55 Swanston Street, CBD, Melbourne",CBD,-37.81651226,144.9667802,$7.50 ,Desserts
Little Cupcakes,"Desserts, Coffee and Tea",4.1,CBD,"Shop 4, 118 Queen Street, CBD, Melbourne",CBD,-37.81574045,144.9611691,$12.50 ,Desserts
Adozen Adozen,"Bakery, Desserts, Japanese",3.9,Carlton,"188 Queensberry Street, Carlton, Melbourne",Carlton,-37.80436156,144.9626563,$10.00 ,Desserts
Uncle Tetsu,"Bakery, Desserts",4,"Melbourne Central, CBD","Melbourne Central, Lower Ground, Corner of Swanston Street and La Trobe Street, CBD","Melbourne Central, CBD",-37.81030498,144.9628582,$10.00 ,Desserts
7 Apples Gelato,"Desserts, Ice Cream",4,Emporium Melbourne,"Emporium Melbourne, Level 3, 287 Lonsdale Street, CBD, Melbourne",Emporium Melbourne,-37.81229529,144.9641979,$7.50 ,Desserts
Axil Coffee Roasters,"Coffee and Tea, Desserts",3.9,CBD,"76 Flinders Lane, CBD, Melbourne",CBD,-37.81510583,144.9715911,$7.50 ,Desserts
Damon Bradley,"Desserts, Coffee and Tea, Cafe Food",3.4,"Southgate, Southbank","Southgate, Middle Level, 3 Southgate Avenue, Southbank, Melbourne","Southgate, Southbank",-37.82036376,144.9661707,$25.00 ,Desserts
Sensory Lab - Bourke Street,"Coffee and Tea, Sandwich, Desserts",3.4,CBD,"David Jones, Level 1, 310 Bourke Street, CBD, Melbourne",CBD,-37.81339822,144.9644994,$15.00 ,Desserts
The Little Royal,Desserts,4,CBD,"Royal Arcade, 335 Bourke Street, CBD, Melbourne",CBD,-37.81460735,144.9641322,$7.50 ,Desserts
Sofi's Lounge,"Desserts, Coffee and Tea",3.6,"Sofitel Melbourne On Collins, CBD","Sofitel Melbourne On Collins, Level 1, 25 Collins Street, CBD, Melbourne","Sofitel Melbourne On Collins, CBD",-37.81425428,144.972948,$50.00 ,Desserts
Tmix,"Bubble Tea, Desserts",3.7,Emporium Melbourne,"Emporium Melbourne, Level 3, 287 Lonsdale Street, CBD, Melbourne",Emporium Melbourne,-37.81275484,144.9638711,$12.50 ,Desserts
Gelatissimo Carlton,"Desserts, Ice Cream",4.2,Carlton,"197 Lygon Street, Carlton, Melbourne",Carlton,-37.80101733,144.9667045,$10.00 ,Desserts
Koko Black,"Coffee and Tea, Desserts",4,CBD,"52 Collins Street, CBD, Melbourne",CBD,-37.81376772,144.9720005,$12.50 ,Desserts