name,cuisine,overall_rating,locality,address,suburb,latitude,longitude,average_for_one,feature
Calia,"Japanese, Australian, Asian",4.5,Emporium Melbourne,"Emporium Melbourne, Ground Floor, 287 Lonsdale Street, CBD, Melbourne",Emporium Melbourne,-37.8127461,144.9639669,$50.00 ,Japanese
Gypsy & Pig,Japanese,4.5,CBD,"Shop 3, 391 Little Lonsdale Street, CBD, Melbourne",CBD,-37.8117793,144.9603047,$35.00 ,Japanese
Hakata Gensuke Ramen Professionals,"Ramen, Japanese",4.7,CBD,"168 Russell Street, CBD, Melbourne",CBD,-37.81233608,144.9680422,$25.00 ,Japanese
Kisume,Japanese,4.5,CBD,"175 Flinders Lane, CBD, Melbourne",CBD,-37.81609166,144.96864,$75.00 ,Japanese
Sakura Kaiten Sushi,"Sushi, Japanese",4.6,CBD,"61 Little Collins Street, CBD, Melbourne",CBD,-37.81289284,144.9717514,$30.00 ,Japanese
Don Don,"Japanese, Asian",4.6,CBD,"198 Little Lonsdale Street, CBD, Melbourne",CBD,-37.81076031,144.9635955,$15.00 ,Japanese
Mugen Ramen & Bar,"Japanese, Ramen",4.4,CBD,"11 Bligh Place, CBD, Melbourne",CBD,-37.81721016,144.9637108,$45.00 ,Japanese
Shoya Nouvelle Wafu Cuisine,"Japanese, Sushi, Japanese BBQ",4.7,CBD,"25 Market Lane, CBD, Melbourne",CBD,-37.81178089,144.9692288,$70.00 ,Japanese
Tetsujin,"Sushi, Japanese, Japanese BBQ",4.2,Emporium Melbourne,"Emporium Melbourne, Level 4, 287 Lonsdale Street, CBD, Melbourne",Emporium Melbourne,-37.81224946,144.9643441,$75.00 ,Japanese
Shimbashi Soba & Sake Bar,"Japanese, Tapas",4.6,CBD,"17 Liverpool Street, CBD, Melbourne",CBD,-37.81133616,144.9714007,$27.50 ,Japanese
Little Ramen Bar,"Japanese, Ramen",4.3,CBD,"346, Little Bourke Street, CBD",CBD,-37.81335452,144.9622896,$30.00 ,Japanese
Shou Sumiyaki,"Japanese, Japanese BBQ",4.4,CBD,"160 Little Bourke Street, CBD, Melbourne",CBD,-37.81174196,144.9678598,$37.50 ,Japanese
Purple Peanuts Japanese Cafe,"Japanese, Sushi",4.6,CBD,"620 Collins Street, CBD, Melbourne",CBD,-37.81884644,144.954549,$20.00 ,Japanese
Kenzan Japanese,"Japanese, Sushi",4.6,Collins Place,"Collins Place, Lower Ground Level, 45 Collins Street, CBD, Melbourne",Collins Place,-37.8146304,144.9727968,$80.00 ,Japanese
Sushi Hotaru,"Japanese, Sushi",4.3,Midcity Arcade,"Midcity Arcade, Level 1, Shop 118, 200 Bourke Street, CBD, Melbourne",Midcity Arcade,-37.81243117,144.9673512,$25.00 ,Japanese
Wagyu One,"Japanese, Japanese BBQ",4.3,CBD,"122 Bourke Street, CBD, Melbourne",CBD,-37.81230456,144.9697002,$60.00 ,Japanese
Shujinko - Russell St,"Japanese, Ramen",4.2,CBD,"225 Russell Street, CBD, Melbourne",CBD,-37.81132583,144.9672962,$25.00 ,Japanese
Niku Ou,"Japanese BBQ, Japanese",4.5,CBD,"Shops 9-10, 108 Bourke Street, CBD, Melbourne",CBD,-37.81222721,144.969896,$50.00 ,Japanese
Ippudo,"Japanese, Ramen",4.4,"QV Centre, CBD","QV Centre, Level 2, 31 Artemis Lane, CBD, Melbourne","QV Centre, CBD",-37.81052165,144.9664024,$25.00 ,Japanese
Mr. Ramen San,"Japanese, Ramen",4.5,Midcity Arcade,"Midcity Arcade, Ground Level, Shop 12, 200 Bourke Street, CBD, Melbourne",Midcity Arcade,-37.81220417,144.9671779,$27.50 ,Japanese
Sushi Monger,"Japanese, Sushi",4.6,Walk Arcade,"17/309-325, Little Collins Street, CBD, Melbourne",Walk Arcade,-37.81486109,144.9645386,$15.00 ,Japanese
BrimCC,Japanese,4.6,CBD,"Shop 2, 601 Little Collins Street, CBD, Melbourne",CBD,-37.81787204,144.9548002,$20.00 ,Japanese
Kaneda Japanese Restaurant,"Japanese, Sushi",4.3,Midcity Arcade,"Midcity Arcade, Ground Level, Shop 6, 200 Bourke Street, CBD, Melbourne",Midcity Arcade,-37.81261684,144.9673482,$20.00 ,Japanese
Wagaya,"Japanese, Sushi",4.2,CBD,"Midcity Arcade, Level 3, 200 Bourke Street, CBD, Melbourne",CBD,-37.81239488,144.9673016,$27.50 ,Japanese
Ishiya Stone Grill,Japanese,4.5,CBD,"152 Little Bourke Street, CBD, Melbourne",CBD,-37.81166064,144.9681529,$75.00 ,Japanese
Teppanyaki Inn,"Japanese, Teppanyaki",4.6,CBD,"182 Collins Street, CBD, Melbourne",CBD,-37.81489288,144.9675886,$80.00 ,Japanese
Rice Workshop,Japanese,4.4,CBD,"238 Little Bourke Street, CBD, Melbourne",CBD,-37.81232071,144.9658515,$20.00 ,Japanese
Tokyo Japanese Restaurant,Japanese,3.9,CBD,"Level 1, 315 Elizabeth Street, CBD, Melbourne",CBD,-37.81121882,144.9616032,$30.00 ,Japanese
Musashi Ramen,"Japanese, Ramen",4.3,CBD,"181 Russell Street, CBD, Melbourne",CBD,-37.81220973,144.9676882,$30.00 ,Japanese
Hihou,Japanese,4.3,CBD,"Level 1, 1 Flinders Lane, CBD, Melbourne",CBD,-37.81444949,144.9741905,$42.50 ,Japanese
Yamato Japanese,"Japanese, Sushi",4.2,CBD,"28 Corrs Lane, CBD, Melbourne",CBD,-37.81092533,144.9682246,$27.50 ,Japanese
Udon Izakaya Maedaya,Japanese,4.2,CBD,"Shop 2, 168 Bourke Street, CBD, Melbourne",CBD,-37.81270399,144.9683406,$32.50 ,Japanese
Takumi,"Japanese BBQ, Hot Pot, Japanese",4.3,CBD,"32 Bourke Street, CBD, Melbourne",CBD,-37.81158091,144.9721487,$60.00 ,Japanese
Izakaya Chuji,"Japanese, Sushi",4.1,CBD,"165 Lonsdale Street, CBD, Melbourne",CBD,-37.81086918,144.9676681,$35.00 ,Japanese
Ramen Ya,"Japanese, Ramen",4.1,Emporium Melbourne,"Emporium Melbourne, Lower Ground, 287 Lonsdale Street, CBD, Melbourne",Emporium Melbourne,-37.81279828,144.9636075,$27.50 ,Japanese
Pepper Lunch,"Asian, Japanese",4,CBD,"309-311 Elizabeth Street, CBD, Melbourne",CBD,-37.81143788,144.9617434,$25.00 ,Japanese
Hanabishi Japanese,Japanese,4.5,CBD,"187 King Street, CBD, Melbourne",CBD,-37.81581646,144.9553185,$100.00 ,Japanese
Akaiito,Japanese,4,CBD,"349-351 Flinders Lane, CBD, Melbourne",CBD,-37.81778967,144.9628223,$125.00 ,Japanese
Hakata Gensuke Chicken Ramen,"Japanese, Ramen",4.3,"QV Centre, CBD","QV Centre, 200 Lonsdale Street, CBD, Melbourne","QV Centre, CBD",-37.81096109,144.9661338,$25.00 ,Japanese
Wagyu Ya,"Japanese, Steak, Japanese BBQ",4.7,South Yarra,"156 Toorak Road, South Yarra, Melbourne",South Yarra,-37.83907098,144.991419,$75.00 ,Japanese
Sake Restaurant & Bar,"Japanese, Sushi",4.2,Southbank,"Southbank Promenade, Hamer Hall, 100 St Kilda Road, Southbank, Melbourne",Southbank,-37.81981606,144.9679205,$65.00 ,Japanese
Ikkoryu Fukuoka Ramen,"Japanese, Ramen",3.9,CBD,"27 Russell Street, CBD, Melbourne",CBD,-37.81601696,144.9694041,$25.00 ,Japanese
DonDon,Japanese,4.3,CBD,"330 Little Lonsdale Street, CBD, Melbourne",CBD,-37.81183917,144.959892,$15.00 ,Japanese
Akachochin,"Japanese, Sushi",4.4,"DFO South Wharf, South Wharf","DFO South Wharf, 33 Dukes Walk, South Wharf, Melbourne","DFO South Wharf, South Wharf",-37.82430379,144.9516036,$60.00 ,Japanese
Gyoza Gyoza - Little Bourke,"Japanese, Dumplings",4.2,CBD,"115-117 Little Bourke Street, CBD, Melbourne",CBD,-37.81147469,144.9690242,$25.00 ,Japanese
Shinbashi Yakiniku,"Japanese, Asian, Japanese BBQ",4.1,Carlton,"294 Lygon Street, Carlton, Melbourne",Carlton,-37.80004773,144.9672329,$40.00 ,Japanese
Taketori,Japanese,4,CBD,"Shop 1/269 King Street, CBD",CBD,-37.81387764,144.9544605,$45.00 ,Japanese
Unabara Lobster & Oyster Bar,"Japanese, Seafood",4.1,"Melbourne Central, CBD","Melbourne Central, Level 1, Corner of Swanston Street and La Trobe Street, CBD, Melbourne","Melbourne Central, CBD",-37.81023267,144.9630553,$35.00 ,Japanese
Akita Japanese,"Japanese, Sushi",4.4,North Melbourne,"Courtney Street and Blackwood Street, North Melbourne, Melbourne",North Melbourne,-37.80204944,144.9543204,$30.00 ,Japanese
Yami Yami - Lonsdale Street,"Japanese, Korean",4.1,CBD,"398 Lonsdale Street, CBD, Melbourne",CBD,-37.81265181,144.9605773,$40.00 ,Japanese
Udon Yasan,Japanese,4,CBD,"186 Bourke Street, CBD, Melbourne",CBD,-37.81277233,144.9677619,$20.00 ,Japanese
Momo Sukiyaki & Shabu Shabu,Japanese,3.8,CBD,"117 Little Bourke Street, CBD, Melbourne",CBD,-37.81150092,144.9689807,$40.00 ,Japanese
Gyoza Douraku,Japanese,4.1,CBD,"147 Bourke Street, CBD, Melbourne",CBD,-37.81263406,144.9689823,$25.00 ,Japanese
Hanaichi,"Japanese, Fast Food",4.3,"QV Centre, CBD","QV Centre, Level 2, Corner of Lonsdale Street and Swanston Street, CBD, Melbourne","QV Centre, CBD",-37.81043212,144.9656561,$17.50 ,Japanese
Menya Ramen - Elizabeth Street,"Japanese, Ramen",3.8,CBD,"437 Elizabeth Street, CBD, Melbourne",CBD,-37.80874983,144.9604449,$25.00 ,Japanese
Mr. Fusion Modern Japanese,Japanese,4,CBD,"Shop 2-3, 540 Little Collins Street, CBD, Melbourne",CBD,-37.81704409,144.9568856,$20.00 ,Japanese
Mochi Moments,Japanese,4.1,Emporium Melbourne,"Emporium Melbourne, Lower Ground, 287 Lonsdale Street, CBD, Melbourne",Emporium Melbourne,-37.81278027,144.9638798,$10.00 ,Japanese
Sakura Kaiten Sushi II,"Japanese, Sushi",4.1,CBD,"282 Lonsdale Street, CBD, Melbourne",CBD,-37.81169454,144.9639572,$35.00 ,Japanese
Coppe Pan Japanese Bakery,"Bakery, Japanese",4.1,"Melbourne Central, CBD","Melbourne Central, Lower Ground, Corner of Swanston Street and La Trobe Street, CBD, Melbourne","Melbourne Central, CBD",-37.81006738,144.9625025,$15.00 ,Japanese
Gyoza Gyoza - Emporium,"Asian, Japanese",4.2,Emporium Melbourne,"Emporium Melbourne, Level 1, 287 Lonsdale Street, CBD, Melbourne",Emporium Melbourne,-37.8127167,144.9639743,$25.00 ,Japanese
Robot Bar,Japanese,4.2,CBD,"12 Bligh Place, CBD, Melbourne",CBD,-37.81708965,144.9637031,$35.00 ,Japanese
Cafe Lafayette,"Cafe Food, Coffee and Tea, Japanese",4,CBD,"30 Niagara Lane, CBD, Melbourne",CBD,-37.81286477,144.9613729,$25.00 ,Japanese
Namoo,"Japanese, Korean",4.1,CBD,"Shop 1/167 Queen Street, CBD, Melbourne",CBD,-37.81485739,144.9604848,$40.00 ,Japanese
Tsuru Japanese Restaurant,"Japanese, Fusion",4,CBD,"Shop 1/27 Little Collins Street, CBD, Melbourne",CBD,-37.81265525,144.9726204,$50.00 ,Japanese
Don Tojo,"Japanese, Asian",4.3,Carlton,"164 Cardigan Street, Carlton, Melbourne",Carlton,-37.80138927,144.9654988,$15.00 ,Japanese
Gaijin Japanese Fusion,"Japanese, Sushi",4.2,South Yarra,"135 Commercial Road, South Yarra, Melbourne",South Yarra,-37.84638861,144.9910251,$40.00 ,Japanese
Sushi Boto,Japanese,3.2,"St Collins Lane, CBD","St Collins Lane, Level 2, 260 Collins Street, CBD, Melbourne","St Collins Lane, CBD",-37.81513947,144.9649332,$30.00 ,Japanese
Sushi Jiro - QV,"Japanese, Sushi",4,"QV Centre, CBD","QV Centre, Level 2, Corner of Lonsdale Street and Swanston Street, CBD, Melbourne","QV Centre, CBD",-37.81056562,144.9659323,$15.00 ,Japanese
Sushi & Nori,"Sushi, Japanese",4.1,Emporium Melbourne,"Emporium Melbourne, Level 3, 287 Lonsdale Street, CBD, Melbourne",Emporium Melbourne,-37.8121896,144.9639317,$20.00 ,Japanese
Rice Workshop,Japanese,4.1,Emporium Melbourne,"Emporium Melbourne, Level 3, 287 Lonsdale Street, CBD, Melbourne",Emporium Melbourne,-37.81251116,144.963462,$20.00 ,Japanese
Parco Project x Shujinko,"Japanese, Italian",3.9,CBD,"427 Elizabeth Street, CBD, Melbourne",CBD,-37.8089689,144.9605877,$25.00 ,Japanese
Hakata Gensuke Yatai Ramen,"Ramen, Japanese",4.2,Carlton,"126 Lygon Street, Carlton, Melbourne",Carlton,-37.80409559,144.9665201,$25.00 ,Japanese